[
  {
    "code": "it-torino",
    "country": "Italy",
    "city": "Torino",
    "address": "Via Giuseppe Garibaldi 151",
    "coordinates": {
      "lat": 45.0711,
      "lng": 7.6866
    },
    "capacity": 120,
    "monthlyRental": 15000,
    "estateOwner": {
      "name": "Immobiliare Piemonte S.p.A.",
      "phone": "+39 011 234 5678",
      "account": "IT68 X070 0696 5127 414L 0118 380"
    },
    "amenities": [
      "Hand sanitizers",
      "Fruit Mondays",
      "Recycling bins",
      "IT support",
      "Showers",
      "Kitchen",
      "24/7 access",
      "Quiet rooms",
      "Game room",
      "Printing",
      "Air conditioning",
      "Team events",
      "Wi-Fi"
    ],
    "imgURL": "torino-566r-Y0ly-Uixj-YmSj-rN4T.jpg"
  },
  {
    "code": "pl-warsaw",
    "country": "Poland",
    "city": "Warszawa",
    "address": "ul. Marszałkowska 130",
    "coordinates": {
      "lat": 52.2297,
      "lng": 21.0122
    },
    "capacity": 140,
    "monthlyRental": 11000,
    "estateOwner": {
      "name": "Warszawskie Nieruchomości Sp. z o.o.",
      "phone": "22 123 45 67",
      "account": "PL43 0926 5994 1051 3200 0501 5166"
    },
    "amenities": [
      "Private desks",
      "Microwave",
      "Team events",
      "Lockers",
      "IT support",
      "Free parking",
      "Recycling bins",
      "Standing desks",
      "Nap pods",
      "24/7 access",
      "Ping-pong",
      "Quiet rooms"
    ],
    "imgURL": "warszawa-eC7F-oKud-3bgI-id2Q-z3Hj.jpg"
  },
  {
    "code": "de-frankfurt",
    "country": "Germany",
    "city": "Frankfurt am Main",
    "address": "Kaiserstraße 138",
    "coordinates": {
      "lat": 50.1109,
      "lng": 8.6821
    },
    "capacity": 200,
    "monthlyRental": 19000,
    "estateOwner": {
      "name": "Frankfurter Immobilien GmbH",
      "phone": "069 12345678",
      "account": "DE15 5009 0090 8040 1721 38"
    },
    "amenities": [
      "Wi-Fi",
      "24/7 access",
      "Conference rooms",
      "Fruit Mondays",
      "Kitchen",
      "Free parking",
      "Outdoor seating",
      "Open space",
      "IT support",
      "Bike racks",
      "Standing desks",
      "Game room",
      "Gym",
      "Showers"
    ],
    "imgURL": "frankfurt-am-main-IZYD-ntdi-1tqf-dHW4-ePhq.jpg"
  },
  {
    "code": "us-dallas",
    "country": "United States of America",
    "city": "Dallas",
    "address": "McKinney Avenue 197",
    "coordinates": {
      "lat": 32.7851,
      "lng": -96.8037
    },
    "capacity": 30,
    "monthlyRental": 34000,
    "estateOwner": {
      "name": "Texas Commercial Properties LLC",
      "phone": "(214) 555-0123",
      "account": "US95 4352 0017 8858 3002 7387"
    },
    "amenities": [
      "Showers",
      "Hand sanitizers",
      "Recycling bins",
      "24/7 access",
      "Fruit Mondays",
      "Ping-pong",
      "Bike racks",
      "Water cooler",
      "Outdoor seating",
      "Printing",
      "Private desks",
      "Free parking",
      "Kitchen",
      "Conference rooms",
      "Snacks",
      "Game room",
      "Wi-Fi",
      "Standing desks",
      "Refrigerator",
      "Quiet rooms",
      "Lockers",
      "Air conditioning",
      "Microwave"
    ],
    "imgURL": "dallas-FRnb-75Z3-h1PG-r1Fj-FfEK.jpg"
  },
  {
    "code": "fr-brest",
    "country": "France",
    "city": "Brest",
    "address": "Rue de Siam 37",
    "coordinates": {
      "lat": 48.3904,
      "lng": -4.4861
    },
    "capacity": 170,
    "monthlyRental": 11000,
    "estateOwner": {
      "name": "SCI Bretagne Immobilier",
      "phone": "02 98 12 34 56",
      "account": "FR04 0934 0060 3301 08G4 2112 953"
    },
    "amenities": [
      "Air conditioning",
      "Nap pods",
      "Wi-Fi",
      "IT support",
      "Hand sanitizers",
      "Conference rooms",
      "Kitchen",
      "Bike racks",
      "Ping-pong"
    ],
    "imgURL": "brest-wYiy-v7jE-Y3wr-Ze8M-prEi.jpg"
  },
  {
    "code": "fr-paris",
    "country": "France",
    "city": "Paris",
    "address": "Rue de Rivoli 185",
    "coordinates": {
      "lat": 48.8584,
      "lng": 2.3488
    },
    "capacity": 190,
    "monthlyRental": 18000,
    "estateOwner": {
      "name": "Société Immobilière de Paris SA",
      "phone": "01 42 12 34 56",
      "account": "FR56 0361 8300 6013 3249 2NY6 447"
    },
    "amenities": [
      "Microwave",
      "Wi-Fi",
      "Outdoor seating",
      "IT support",
      "Team events",
      "Snacks",
      "24/7 access",
      "Conference rooms",
      "Lockers",
      "Bike racks",
      "Showers",
      "Gym"
    ],
    "imgURL": "paris-ioeJ-We5j-Xb69-CFvW-ru6m.jpg"
  },
  {
    "code": "uk-plymouth",
    "country": "United Kingdom",
    "city": "Plymouth",
    "address": "Armada Way 169",
    "coordinates": {
      "lat": 50.3755,
      "lng": -4.1427
    },
    "capacity": 130,
    "monthlyRental": 16000,
    "estateOwner": {
      "name": "Devon Property Holdings Ltd",
      "phone": "01752 123456",
      "account": "GB96 VISP 0546 6201 0089 49"
    },
    "amenities": [
      "Kitchen",
      "Nap pods",
      "Hand sanitizers",
      "Conference rooms",
      "24/7 access",
      "Showers"
    ],
    "imgURL": "plymouth-5Bdr-QbQQ-eEhE-gAxi-5dCP.jpg"
  },
  {
    "code": "es-madrid",
    "country": "Spain",
    "city": "Madrid",
    "address": "Calle Gran Vía 147",
    "coordinates": {
      "lat": 40.4197,
      "lng": -3.7038
    },
    "capacity": 80,
    "monthlyRental": 11000,
    "estateOwner": {
      "name": "Inmobiliaria Madrileña S.L.",
      "phone": "910 234 567",
      "account": "ES81 0190 4200 4891 0053 7822"
    },
    "amenities": [
      "Wi-Fi",
      "Conference rooms",
      "Open space",
      "Kitchen",
      "Free parking",
      "Showers",
      "Printing",
      "IT support",
      "Team events",
      "Hand sanitizers",
      "Recycling bins"
    ],
    "imgURL": "madrid-F7Z4-PXYY-4Y7y-MGmk-DApU.jpg"
  },
  {
    "code": "uk-london",
    "country": "United Kingdom",
    "city": "London",
    "address": "Oxford Street 70",
    "coordinates": {
      "lat": 51.5154,
      "lng": -0.1416
    },
    "capacity": 90,
    "monthlyRental": 53000,
    "estateOwner": {
      "name": "London Commercial Properties Ltd",
      "phone": "020 7123 4567",
      "account": "GB58 IPES 1004 4740 0400 89"
    },
    "amenities": [
      "Water cooler",
      "IT support",
      "Conference rooms"
    ],
    "imgURL": "london-z7dq-5DRO-8sFm-wNGY-F0nd.jpg"
  },
  {
    "code": "uk-bracknell",
    "country": "United Kingdom",
    "city": "Bracknell",
    "address": "High Street 42",
    "coordinates": {
      "lat": 51.4154,
      "lng": -0.7499
    },
    "capacity": 50,
    "monthlyRental": 26000,
    "estateOwner": {
      "name": "Best-Of-Breed People Estates Inc",
      "phone": "0924 810 4060",
      "account": "GB58 LZTJ 6100 7380 3590 04"
    },
    "amenities": [
      "Refrigerator",
      "Showers",
      "Private desks"
    ],
    "imgURL": "bracknell-Nu9O-oYX8-P2K4-D6Cy-5mb1.jpg"
  },
  {
    "code": "es-granada",
    "country": "Spain",
    "city": "Granada",
    "address": "Calle Reyes Católicos 72",
    "coordinates": {
      "lat": 37.1773,
      "lng": -3.5986
    },
    "capacity": 90,
    "monthlyRental": 6000,
    "estateOwner": {
      "name": "Inmobiliaria Andaluza S.L.",
      "phone": "958 123 456",
      "account": "ES54 0300 7005 0364 6902 0608"
    },
    "amenities": [
      "Game room",
      "Water cooler",
      "Open space",
      "Ping-pong",
      "24/7 access",
      "Free parking",
      "Printing"
    ],
    "imgURL": "granada-fDRf-tTgk-61JS-wCxl-18Yz.jpg"
  },
  {
    "code": "pl-radom",
    "country": "Poland",
    "city": "Radom",
    "address": "ul. Żeromskiego 33",
    "coordinates": {
      "lat": 51.4027,
      "lng": 21.1471
    },
    "capacity": 90,
    "monthlyRental": 6000,
    "estateOwner": {
      "name": "Radomskie Nieruchomości Sp. z o.o.",
      "phone": "48 321 45 67",
      "account": "PL52 0194 6605 9400 8802 2769 0091"
    },
    "amenities": [
      "Recycling bins",
      "Game room",
      "Fruit Mondays",
      "Gym"
    ],
    "imgURL": "radom-ZFxp-Vkyz-01tX-YhJX-FvwE.jpg"
  },
  {
    "code": "uk-reading",
    "country": "United Kingdom",
    "city": "Reading",
    "address": "Broad Street 159",
    "coordinates": {
      "lat": 51.4543,
      "lng": -0.9781
    },
    "capacity": 100,
    "monthlyRental": 23000,
    "estateOwner": {
      "name": "World-Class Estates Inc",
      "phone": "0500 550507",
      "account": "GB90 BOFA 4006 7627 0051 08"
    },
    "amenities": [
      "Standing desks"
    ],
    "imgURL": "reading-cK7Y-lQrq-xQt6-CDG2-pISl.jpg"
  },
  {
    "code": "fr-rennes",
    "country": "France",
    "city": "Rennes",
    "address": "Rue de la Monnaie 39",
    "coordinates": {
      "lat": 48.1117,
      "lng": -1.6800
    },
    "capacity": 160,
    "monthlyRental": 14000,
    "estateOwner": {
      "name": "Minor-Class Estates LLC",
      "phone": "0370364123",
      "account": "FR83 4091 5609 69O9 6360 F425 438"
    },
    "amenities": [
      "Free parking",
      "Showers",
      "24/7 access",
      "Private desks",
      "Bike racks",
      "Kitchen",
      "Refrigerator",
      "Snacks",
      "IT support"
    ],
    "imgURL": "rennes-NGMz-Y9fQ-4QY5-IlYR-pQno.jpg"
  },
  {
    "code": "nl-haag",
    "country": "Netherlands",
    "city": "Den Haag",
    "address": "Lange Voorhout 79",
    "coordinates": {
      "lat": 52.0842,
      "lng": 4.3137
    },
    "capacity": 50,
    "monthlyRental": 13000,
    "estateOwner": {
      "name": "Haagse Vastgoed B.V.",
      "phone": "070 123 4567",
      "account": "NL32 PZXG 0100 4892 79"
    },
    "amenities": [
      "Standing desks",
      "Kitchen",
      "Private desks",
      "Open space",
      "Microwave",
      "Conference rooms",
      "Gym",
      "Lockers",
      "Ping-pong",
      "Hand sanitizers",
      "Showers"
    ],
    "imgURL": "den-haag-ahwk-zebu-L6KN-zUx9-hZEV.jpg"
  },
  {
    "code": "pl-lodz",
    "country": "Poland",
    "city": "Łódź",
    "address": "ul. Piotrkowska 101",
    "coordinates": {
      "lat": 51.7687,
      "lng": 19.4569
    },
    "capacity": 180,
    "monthlyRental": 20000,
    "estateOwner": {
      "name": "Łódzkie Centrum Nieruchomości Sp. z o.o.",
      "phone": "42 123 45 67",
      "account": "PL60 4940 0146 0008 9635 6005 9462"
    },
    "amenities": [
      "24/7 access",
      "Bike racks",
      "Gym",
      "Water cooler",
      "Printing",
      "Game room",
      "Snacks"
    ],
    "imgURL": "lodz-cpzj-Fi1e-0BTM-tSsl-dhJR.jpg"
  },
  {
    "code": "pl-wroclaw",
    "country": "Poland",
    "city": "Wrocław",
    "address": "ul. Świdnicka 71",
    "coordinates": {
      "lat": 51.1079,
      "lng": 17.0385
    },
    "capacity": 190,
    "monthlyRental": 13000,
    "estateOwner": {
      "name": "Frictionless Estates LLC",
      "phone": "43-591-70-09",
      "account": "PL04 2500 1249 1006 1764 8022 0032"
    },
    "amenities": [
      "24/7 access",
      "Kitchen",
      "Open space",
      "Microwave",
      "Quiet rooms"
    ],
    "imgURL": "wroclaw-YiMX-ogrX-CPHu-N9CV-Q43k.jpg"
  },
  {
    "code": "nl-utrecht",
    "country": "Netherlands",
    "city": "Utrecht",
    "address": "Oudegracht 61",
    "coordinates": {
      "lat": 52.0907,
      "lng": 5.1214
    },
    "capacity": 130,
    "monthlyRental": 19000,
    "estateOwner": {
      "name": "Utrecht Vastgoed B.V.",
      "phone": "030 234 5678",
      "account": "NL16 HTLT 5101 0300 76"
    },
    "amenities": [
      "Showers",
      "Wi-Fi",
      "Conference rooms",
      "Team events",
      "Recycling bins"
    ],
    "imgURL": "utrecht-NVvk-MSz6-DpWY-osco-d6Nn.jpg"
  },
  {
    "code": "pl-lublin",
    "country": "Poland",
    "city": "Lublin",
    "address": "ul. Krakowskie Przedmieście 193",
    "coordinates": {
      "lat": 51.2465,
      "lng": 22.5684
    },
    "capacity": 40,
    "monthlyRental": 17000,
    "estateOwner": {
      "name": "Lubelskie Nieruchomości Sp. z o.o.",
      "phone": "81 234 56 78",
      "account": "PL17 4020 9002 8045 4307 0003 2097"
    },
    "amenities": [
      "Bike racks",
      "Water cooler",
      "Free parking",
      "Lockers"
    ],
    "imgURL": "lublin-OxBY-NJPx-QTVS-dQ88-w286.jpg"
  },
  {
    "code": "pl-gdansk",
    "country": "Poland",
    "city": "Gdańsk",
    "address": "ul. Długa 62",
    "coordinates": {
      "lat": 54.3489,
      "lng": 18.6570
    },
    "capacity": 70,
    "monthlyRental": 9000,
    "estateOwner": {
      "name": "User-Centric Estates Group",
      "phone": "54-599-64-97",
      "account": "PL79 0011 0048 3805 5289 5507 8559"
    },
    "amenities": [
      "IT support",
      "Showers",
      "Quiet rooms"
    ],
    "imgURL": "gdansk-n2ZQ-zRj8-6oJL-hc8N-JD7b.jpg"
  },
  {
    "code": "de-darmstadt",
    "country": "Germany",
    "city": "Darmstadt",
    "address": "Wilhelminenstraße 196",
    "coordinates": {
      "lat": 49.8728,
      "lng": 8.6512
    },
    "capacity": 60,
    "monthlyRental": 20000,
    "estateOwner": {
      "name": "Darmstadt Immobilien GmbH",
      "phone": "06151 123456",
      "account": "DE57 7030 2238 0400 5997 60"
    },
    "amenities": [
      "Quiet rooms",
      "Air conditioning",
      "Snacks"
    ],
    "imgURL": "darmstadt-U2Ul-fm37-FF8X-uArP-OtBg.jpg"
  },
  {
    "code": "uk-manchester",
    "country": "United Kingdom",
    "city": "Manchester",
    "address": "Deansgate 46",
    "coordinates": {
      "lat": 53.4808,
      "lng": -2.2426
    },
    "capacity": 60,
    "monthlyRental": 18000,
    "estateOwner": {
      "name": "B2B Estates Group",
      "phone": "0800 043 8564",
      "account": "GB65 FVIB 0051 3930 0708 44"
    },
    "amenities": [
      "Air conditioning",
      "Private desks",
      "Team events"
    ],
    "imgURL": "manchester-z2Ae-8o5Z-Pj35-YfrS-BSci.jpg"
  },
  {
    "code": "fr-lille",
    "country": "France",
    "city": "Lille",
    "address": "Rue Faidherbe 10",
    "coordinates": {
      "lat": 50.6366,
      "lng": 3.0635
    },
    "capacity": 150,
    "monthlyRental": 11000,
    "estateOwner": {
      "name": "Viral Estates Group",
      "phone": "+33 433348418",
      "account": "FR29 3008 5208 1633 D179 1461 361"
    },
    "amenities": [
      "Open space"
    ],
    "imgURL": "lille-RLKg-0sXe-AOP8-aiwZ-5KGS.jpg"
  },
  {
    "code": "nl-amsterdam",
    "country": "Netherlands",
    "city": "Amsterdam",
    "address": "Damrak 81",
    "coordinates": {
      "lat": 52.3738,
      "lng": 4.8944
    },
    "capacity": 150,
    "monthlyRental": 10000,
    "estateOwner": {
      "name": "B2C Estates and Sons",
      "phone": "(7364) 079343",
      "account": "NL86 AMUJ 9303 4156 60"
    },
    "amenities": [
      "Outdoor seating",
      "Open space",
      "Showers",
      "Microwave",
      "Air conditioning"
    ],
    "imgURL": "amsterdam-6Uf6-XCKJ-qTKq-ISt2-B3SE.jpg"
  },
  {
    "code": "de-munchen",
    "country": "Germany",
    "city": "München",
    "address": "Kaufingerstraße 20",
    "coordinates": {
      "lat": 48.1371,
      "lng": 11.5754
    },
    "capacity": 110,
    "monthlyRental": 46000,
    "estateOwner": {
      "name": "Münchener Immobilien GmbH",
      "phone": "089 123456",
      "account": "DE37 0031 8915 5320 9040 01"
    },
    "amenities": [
      "Outdoor seating",
      "Standing desks",
      "Gym",
      "Private desks",
      "Nap pods",
      "Refrigerator",
      "IT support",
      "Hand sanitizers",
      "Wi-Fi",
      "Quiet rooms",
      "Team events",
      "24/7 access",
      "Printing",
      "Free parking"
    ],
    "imgURL": "munchen-MmUh-Prcz-CV80-ueMv-g9LR.jpg"
  },
  {
    "code": "us-milpitas",
    "country": "United States of America",
    "city": "Milpitas",
    "address": "Great Mall Parkway 142",
    "coordinates": {
      "lat": 37.4154,
      "lng": -121.9008
    },
    "capacity": 50,
    "monthlyRental": 18000,
    "estateOwner": {
      "name": "Bay Area Properties LLC",
      "phone": "(408) 555-0123",
      "account": "US13 9006 0700 2500 3933 2082"
    },
    "amenities": [
      "Kitchen",
      "Air conditioning",
      "Printing",
      "Conference rooms",
      "Ping-pong",
      "24/7 access",
      "Gym",
      "Bike racks",
      "IT support"
    ],
    "imgURL": "milpitas-CKbb-fwJs-1JCD-xthJ-Q5dp.jpg"
  },
  {
    "code": "us-san-francisco",
    "country": "United States of America",
    "city": "San Francisco",
    "address": "Market Street 75",
    "coordinates": {
      "lat": 37.7937,
      "lng": -122.3988
    },
    "capacity": 80,
    "monthlyRental": 17000,
    "estateOwner": {
      "name": "SF Commercial Real Estate LLC",
      "phone": "(415) 555-0123",
      "account": "US76 5650 4372 7100 9904 2698"
    },
    "amenities": [
      "Printing",
      "Hand sanitizers",
      "Team events",
      "Free parking",
      "Open space",
      "Recycling bins",
      "IT support"
    ],
    "imgURL": "san-francisco-yT4p-9bAD-eiVF-Lmdy-lT3g.jpg"
  },
  {
    "code": "it-rome",
    "country": "Italy",
    "city": "Roma",
    "address": "Via del Corso 55",
    "coordinates": {
      "lat": 41.9027,
      "lng": 12.4800
    },
    "capacity": 140,
    "monthlyRental": 10000,
    "estateOwner": {
      "name": "Immobiliare Roma Centro S.r.l.",
      "phone": "+39 06 123 4567",
      "account": "IT28 Z000 0617 909U 3691 M617 0JA"
    },
    "amenities": [
      "Hand sanitizers",
      "Wi-Fi",
      "Gym",
      "Printing",
      "Conference rooms"
    ],
    "imgURL": "roma-bsuq-q7zW-DIqc-dpDJ-f0OC.jpg"
  },
  {
    "code": "in-bangalore",
    "country": "India",
    "city": "Bengaluru",
    "address": "Outer Ring Road 241, Bellandur",
    "coordinates": {
      "lat": 12.9259,
      "lng": 77.6229
    },
    "capacity": 320,
    "monthlyRental": 8000,
    "estateOwner": {
      "name": "Bangalore Tech Parks Ltd",
      "phone": "+91 80 4123 5678",
      "account": "IN91 HDFC 0002 0012 3456 7890"
    },
    "amenities": [
      "Wi-Fi",
      "Air conditioning",
      "IT support",
      "Water cooler"
    ],
    "imgURL": "bangalore-KpWx-vR4n-2mLs-tY9q-H3Jd.jpg"
  },
  {
    "code": "in-hyderabad",
    "country": "India",
    "city": "Hyderabad",
    "address": "Hitec City Road 127, Madhapur",
    "coordinates": {
      "lat": 17.4435,
      "lng": 78.3772
    },
    "capacity": 280,
    "monthlyRental": 7000,
    "estateOwner": {
      "name": "Hyderabad Office Solutions Pvt Ltd",
      "phone": "+91 40 3456 7890",
      "account": "IN63 ICIC 0001 0023 4567 8901"
    },
    "amenities": [
      "Wi-Fi",
      "Air conditioning",
      "IT support",
      "Water cooler"
    ],
    "imgURL": "hyderabad-9dKm-tL2p-5nWx-vB8j-R4Yz.jpg"
  }
]
